City_ID,City,Lat,Lng,Max Temp,Humidity,Cloudiness,Wind Speed,Country,Date
0,kapaa,22.0752,-159.319,296.33,91,40,1.54,US,1680452164
1,buraydah,26.326,43.975,293.88,15,0,4.61,SA,1680451973
2,rikitea,-23.1203,-134.9692,300.12,80,34,6.86,PF,1680452164
3,mahebourg,-20.4081,57.7,300.51,89,75,3.6,MU,1680452165
4,bluff,-46.6,168.3333,284.66,73,92,4.76,NZ,1680452165
5,yulara,-25.2406,130.9889,296.43,52,27,5.57,AU,1680452165
6,tiksi,71.6872,128.8694,262.61,78,100,14.79,RU,1680452165
7,santa cruz,-17.8,-63.1667,303.85,66,40,1.54,BO,1680451882
8,hobart,-42.8794,147.3294,285.96,81,38,3.6,AU,1680451930
9,kapit,2.0167,112.9333,295.68,99,100,0.66,MY,1680452166
10,hithadhoo,-0.6,73.0833,301.31,71,9,3.19,MV,1680452166
11,viedma,-40.8135,-62.9967,295.26,37,100,6.22,AR,1680452167
12,port alfred,-33.5906,26.891,296.58,89,43,2.24,ZA,1680452167
13,marsh harbour,26.5412,-77.0636,298.5,75,17,5.74,BS,1680452168
14,pringsewu,-5.3582,104.9744,296.28,95,99,1.9,ID,1680452168
15,tuatapere,-46.1333,167.6833,281.18,83,92,1.83,NZ,1680452168
16,faya,18.3851,42.4509,291.21,67,79,3.12,SA,1680452168
17,atuona,-9.8,-139.0333,300.53,72,88,7.08,PF,1680452006
18,kaitangata,-46.2817,169.8464,280.16,91,29,3.24,NZ,1680452169
19,qaanaaq,77.484,-69.3632,251.44,70,23,1.31,GL,1680452169
20,nsukka,6.8561,7.3927,306.22,33,82,2.31,NG,1680452170
21,arman,59.7,150.1667,267.73,95,100,2.51,RU,1680452170
22,mataura,-46.1927,168.8643,279.39,92,57,1.3,NZ,1680452170
23,hilo,19.7297,-155.09,296.08,90,100,1.54,US,1680452087
24,hermanus,-34.4187,19.2345,294.15,87,12,3.52,ZA,1680452171
25,tezu,27.9167,96.1667,289.72,95,99,1.06,IN,1680452171
26,busselton,-33.65,115.3333,289.63,90,0,5.64,AU,1680452154
27,torbay,47.6666,-52.7314,280.58,76,100,8.23,CA,1680452171
28,port lincoln,-34.7333,135.8667,289.39,65,100,5.31,AU,1680452124
29,borsa,47.6553,24.6633,280.3,93,100,1.14,RO,1680452172
30,iguape,-24.7081,-47.5553,297.98,63,94,3.79,BR,1680452172
31,albany,42.6001,-73.9662,277.69,39,5,4.02,US,1680451949
32,veraval,20.9,70.3667,297.88,73,1,4.34,IN,1680452173
33,punta arenas,-53.15,-70.9167,288.21,36,75,9.26,CL,1680452151
34,vaini,-21.2,-175.2,297.24,83,20,2.57,TO,1680452173
35,richards bay,-28.783,32.0377,297.25,79,0,5.89,ZA,1680451967
36,cape town,-33.9258,18.4232,294.38,85,75,7.72,ZA,1680451484
37,dubti,11.7361,41.0853,305.05,46,100,0.51,ET,1680452174
38,batarci,48.0333,23.1667,289.92,69,99,1.96,RO,1680452174
39,rumphi,-11.0186,33.8575,292.4,97,100,1.7,MW,1680452175
40,coari,-4.085,-63.1414,295.73,98,100,0.61,BR,1680452176
41,arraial do cabo,-22.9661,-42.0278,298.07,69,75,7.2,BR,1680451997
42,rorvik,64.8621,11.2373,278.21,42,0,4.63,NO,1680452176
43,dikson,73.5069,80.5464,248.48,99,99,4.44,RU,1680452176
44,santa maria,-29.6842,-53.8069,298.71,34,8,3.23,BR,1680451897
45,avarua,-21.2078,-159.775,299.18,83,75,3.6,CK,1680452177
46,gualeguay,-33.1416,-59.3097,294.39,44,97,3.17,AR,1680452178
47,la ronge,55.1001,-105.2842,262.58,93,100,5.85,CA,1680452124
48,nikolskoye,59.7035,30.7861,274.15,87,71,4.83,RU,1680452179
49,lebu,-37.6167,-73.65,288.16,78,53,6.19,CL,1680452179
50,ushuaia,-54.8,-68.3,282.96,66,0,1.03,AR,1680451896
51,batticaloa,7.7102,81.6924,300.22,80,17,4.16,LK,1680452179
52,sabzevar,36.2126,57.6819,286.34,26,18,1.66,IR,1680452179
53,sibolga,1.7427,98.7792,297.35,93,100,1.1,ID,1680452180
54,castro,-24.7911,-50.0119,295.56,69,91,0.96,BR,1680451886
55,bredasdorp,-34.5322,20.0403,294.13,76,5,4.25,ZA,1680452180
56,detmold,51.8,8.0,281.17,57,46,4.69,DE,1680452180
57,saskylakh,71.9167,114.0833,266.12,94,100,3.49,RU,1680452181
58,mount gambier,-37.8333,140.7667,281.74,91,0,1.58,AU,1680452181
59,abu dhabi,24.4667,54.3667,297.01,54,0,4.63,AE,1680452181
60,saldanha,-33.0117,17.9442,290.77,89,62,5.82,ZA,1680452181
61,camarillo,34.2164,-119.0376,289.06,76,0,1.54,US,1680452182
62,poum,-20.2333,164.0167,299.1,77,10,4.19,NC,1680452182
63,bera,24.0833,89.6167,299.24,54,45,2.08,BD,1680452182
64,taft,31.7471,54.2088,288.12,6,0,3.09,IR,1680452183
65,kamaishi,39.2667,141.8833,278.7,82,84,2.36,JP,1680452183
66,puerto ayora,-0.7393,-90.3518,303.13,88,56,3.13,EC,1680452183
67,east london,-33.0153,27.9116,297.18,81,31,7.87,ZA,1680451987
68,kahului,20.8947,-156.47,296.4,88,0,2.06,US,1680451957
69,gurupa,-1.405,-51.64,300.94,79,77,2.0,BR,1680452184
70,nouakchott,18.0858,-15.9785,314.11,20,70,2.19,MR,1680452184
71,sorland,67.667,12.6934,275.07,60,100,4.88,NO,1680452185
72,khatanga,71.9667,102.5,267.97,97,100,2.88,RU,1680452185
73,upernavik,72.7868,-56.1549,247.06,92,62,2.5,GL,1680452186
74,tasiilaq,65.6145,-37.6368,271.24,68,100,0.72,GL,1680452186
75,hargeysa,9.56,44.065,296.14,67,99,5.57,SO,1680452186
76,diadi,16.662,121.3658,295.45,93,60,0.73,PH,1680452186
77,cidreira,-30.1811,-50.2056,296.0,51,53,3.19,BR,1680452187
78,mount pleasant,32.7941,-79.8626,296.23,43,0,2.57,US,1680452123
79,san patricio,28.017,-97.5169,302.07,57,100,7.55,US,1680452187
80,san cristobal,7.7669,-72.225,298.25,70,100,3.13,VE,1680452187
81,myszkow,50.5752,19.3246,276.84,88,100,5.31,PL,1680452188
82,mocuba,-16.8392,36.9856,295.41,92,94,1.57,MZ,1680452188
83,pevek,69.7008,170.3133,240.94,100,100,1.12,RU,1680452188
84,bakel,14.905,-12.4568,314.42,5,0,5.8,SN,1680452188
85,new norfolk,-42.7826,147.0587,285.77,72,54,1.0,AU,1680452189
86,harper,4.375,-7.7169,302.45,65,11,4.08,LR,1680452189
87,airai,-8.9266,125.4092,288.43,94,91,0.48,TL,1680452189
88,tuktoyaktuk,69.4541,-133.0374,248.15,77,0,2.57,CA,1680452189
89,cap malheureux,-19.9842,57.6142,300.08,77,100,2.68,MU,1680452190
90,suntar,62.1444,117.6319,261.86,89,17,2.96,RU,1680452190
91,isla vista,34.4133,-119.861,291.65,76,0,1.34,US,1680452190
92,solnechnyy,50.7214,136.6319,273.7,94,31,1.74,RU,1680452191
93,batagay-alyta,67.8006,130.4114,257.58,86,99,2.39,RU,1680452191
94,rudnichnyy,59.617,52.4703,275.14,98,100,1.26,RU,1680452191
95,olhao,37.0286,-7.8411,294.98,71,0,6.69,PT,1680452000
96,hasaki,35.7333,140.8333,283.27,61,100,9.2,JP,1680452192
97,kedougou,12.5579,-12.1743,307.47,31,0,4.12,SN,1680452192
98,aklavik,68.2191,-135.0107,253.15,77,40,2.06,CA,1680452192
99,leningradskiy,69.3833,178.4167,246.07,95,95,4.05,RU,1680452193
100,bairiki,1.3292,172.9752,300.47,77,30,4.28,KI,1680452193
101,samarai,-10.6167,150.6667,300.98,79,52,3.7,PG,1680452193
102,port macquarie,-31.4333,152.9167,289.2,88,60,1.4,AU,1680452193
103,plouzane,48.3833,-4.6167,285.18,69,75,4.63,FR,1680452193
104,les trois-ilets,14.539,-61.0361,301.1,65,75,9.77,MQ,1680452194
105,abu samrah,35.3029,37.1841,287.96,66,100,3.8,SY,1680452194
106,nicoya,10.1483,-85.452,303.92,48,98,5.34,CR,1680452194
107,lamu,-2.2717,40.902,302.27,77,20,5.14,KE,1680452194
108,nyurba,63.2842,118.3319,263.3,87,72,5.22,RU,1680452194
109,dumka,24.2667,87.25,300.7,30,8,2.59,IN,1680452195
110,barrow,71.2906,-156.7887,257.16,85,100,8.75,US,1680452196
111,chokurdakh,70.6333,147.9167,245.2,98,50,4.36,RU,1680452196
112,arkhangelsk,64.5401,40.5433,273.21,59,20,3.0,RU,1680452013
113,port elizabeth,-33.918,25.5701,296.54,87,0,2.24,ZA,1680452196
114,coihaique,-45.5752,-72.0662,286.49,58,75,1.54,CL,1680452196
115,ilulissat,69.2167,-51.1,261.16,72,40,2.06,GL,1680452196
116,shirokiy,49.758,129.523,282.04,56,92,3.37,RU,1680452196
117,saint anthony,45.0205,-93.218,279.18,57,0,8.75,US,1680452196
118,russell,32.3502,-85.1999,292.54,38,77,2.38,US,1680452124
119,deori khas,23.4,79.0167,300.42,29,57,2.32,IN,1680452197
120,isakly,54.1333,51.5333,280.38,67,74,3.97,RU,1680452197
121,sechura,-5.5569,-80.8222,301.96,63,98,1.14,PE,1680452197
122,miramar,25.9873,-80.2323,303.72,63,40,4.12,US,1680452197
123,vao,-22.6667,167.4833,298.3,83,8,2.03,NC,1680452198
124,chatrapur,19.35,84.9833,299.99,82,16,7.54,IN,1680452198
125,narrabri,-30.3167,149.7833,289.0,80,81,0.89,AU,1680452198
126,inirida,3.8653,-67.9239,303.71,59,78,1.54,CO,1680452198
127,butaritari,3.0707,172.7902,300.39,75,51,3.31,KI,1680452199
128,sao joao da barra,-21.6403,-41.0511,304.2,60,98,7.49,BR,1680452071
129,vilyuysk,63.7553,121.6247,263.57,87,98,5.3,RU,1680452199
130,nemuro,43.3236,145.575,273.82,72,0,6.87,JP,1680452199
131,hamilton,39.1834,-84.5333,281.42,67,100,2.68,US,1680451919
132,mbanza-ngungu,-5.25,14.8667,298.54,77,29,1.31,CD,1680452199
133,mar del plata,-38.0023,-57.5575,298.12,45,0,3.6,AR,1680452085
134,henties bay,-22.116,14.2845,291.1,77,12,4.64,NA,1680452200
135,yellowknife,62.456,-114.3525,256.44,85,100,3.6,CA,1680451520
136,bambanglipuro,-7.95,110.2833,298.07,86,99,2.22,ID,1680452200
137,presidente epitacio,-21.7633,-52.1156,302.46,61,6,2.62,BR,1680451941
138,mayya,61.7333,130.2811,255.77,96,61,2.43,RU,1680452200
139,novikovo,51.1537,37.8879,282.04,70,100,2.97,RU,1680452200
140,korla,41.7597,86.1469,281.21,20,0,4.03,CN,1680452200
141,villanueva de la serena,38.9766,-5.7974,294.17,29,20,2.46,ES,1680452201
142,hollola,61.05,25.4333,271.91,83,91,4.93,FI,1680452201
143,shitkino,56.3703,98.3543,259.56,95,58,1.33,RU,1680452201
144,olinda,-8.0089,-34.8553,303.0,62,20,3.09,BR,1680452201
145,ulladulla,-35.35,150.4667,283.58,85,10,1.77,AU,1680452201
146,jalingo,8.8833,11.3667,310.75,9,95,2.23,NG,1680452201
147,sisophon,13.5859,102.9737,301.47,61,60,3.2,KH,1680452201
148,esperance,-33.8667,121.9,290.9,76,0,4.6,AU,1680452202
149,tucuma,-0.1833,-50.05,299.6,87,72,3.59,BR,1680451940
150,port hardy,50.6996,-127.4199,275.25,100,40,2.57,CA,1680452202
151,burnie,-41.0667,145.9167,283.12,88,13,2.75,AU,1680452202
152,bethel,41.3712,-73.414,281.83,30,0,8.75,US,1680452202
153,ostrovnoy,68.0531,39.5131,268.41,71,100,4.97,RU,1680452202
154,ixtapa,20.7,-105.2,296.72,73,20,2.06,MX,1680452202
155,kupang,-10.1667,123.5833,298.32,89,100,1.92,ID,1680452202
156,kiruna,67.8557,20.2251,269.66,46,0,3.09,SE,1680452203
157,prairie village,38.9917,-94.6336,291.27,31,0,10.8,US,1680452203
158,cabo san lucas,22.8909,-109.9124,298.49,67,40,1.03,MX,1680451904
159,omboue,-1.5746,9.2618,301.64,72,63,5.69,GA,1680452203
160,beyneu,45.3167,55.2,282.7,77,96,3.16,KZ,1680452203
161,asekeyevo,53.5742,52.7972,279.31,76,23,4.62,RU,1680452203
162,imbituba,-28.24,-48.6703,299.74,56,0,4.64,BR,1680452134
163,kruisfontein,-34.0033,24.7314,295.31,67,34,1.53,ZA,1680452204
164,theunissen,-28.411,26.7011,296.13,33,77,5.45,ZA,1680452204
165,auki,-8.7676,160.7034,297.55,88,100,1.7,SB,1680452204
166,bandarbeyla,9.4942,50.8122,301.08,73,7,5.84,SO,1680452204
167,bure,10.7,37.0667,295.75,22,91,4.99,ET,1680452204
168,egvekinot,66.3167,-179.1667,249.35,83,49,1.78,RU,1680452205
169,tilichiki,60.4667,166.1,267.55,97,99,0.69,RU,1680452205
170,sola,-13.8833,167.55,301.17,76,100,4.92,VU,1680451939
171,provideniya,64.3833,-173.3,253.99,96,7,2.52,RU,1680452205
172,marystown,47.1666,-55.1483,275.78,98,100,3.71,CA,1680452205
173,ibra,22.6906,58.5334,301.58,29,74,3.02,OM,1680452205
174,aqtobe,50.2797,57.2072,283.2,34,0,6.0,KZ,1680452205
175,mamallapuram,12.6264,80.1722,303.18,82,18,6.09,IN,1680452205
176,graaff-reinet,-32.2522,24.5308,294.22,60,74,4.41,ZA,1680452206
177,cockburn town,21.4612,-71.1419,298.29,67,0,6.81,TC,1680452206
178,puerto el triunfo,13.2833,-88.55,304.99,37,98,1.61,SV,1680452206
179,ugoofaaru,5.6667,73.0,301.26,71,3,3.83,MV,1680452206
180,kavaratti,10.5669,72.642,301.43,67,7,5.33,IN,1680452206
181,kavieng,-2.5744,150.7967,300.57,81,94,5.72,PG,1680452206
182,souillac,-20.5167,57.5167,299.36,89,75,3.6,MU,1680452206
183,cherskiy,68.75,161.3,235.34,100,28,0.67,RU,1680452206
184,alamogordo,32.8995,-105.9603,293.46,17,0,1.54,US,1680452207
185,laguna,38.421,-121.4238,285.4,74,0,5.66,US,1680452207
186,saint-augustin,51.226,-58.6502,272.98,98,100,9.53,CA,1680452121
187,olafsvik,64.8945,-23.7142,278.08,67,100,5.04,IS,1680452207
188,buala,-8.145,159.5921,299.06,86,100,1.13,SB,1680452207
189,narsaq,60.9167,-46.05,278.27,56,100,2.33,GL,1680452207
190,iqaluit,63.7506,-68.5145,255.0,71,75,1.03,CA,1680452207
191,payo,-3.7508,103.6372,295.67,97,99,1.02,ID,1680452208
192,longyearbyen,78.2186,15.6401,266.06,93,75,2.57,SJ,1680452208
193,bafq,31.6128,55.4107,291.08,11,0,2.73,IR,1680452208
194,ancud,-41.8697,-73.8203,286.89,58,38,2.95,CL,1680452208
195,abnub,27.2696,31.1511,298.73,14,0,3.73,EG,1680452208
196,constitucion,-35.3333,-72.4167,292.75,64,100,5.36,CL,1680452082
197,bongandanga,1.5,21.05,300.03,61,82,2.24,CD,1680452208
198,tura,25.5198,90.2201,293.05,72,39,1.28,IN,1680452208
199,jamestown,42.097,-79.2353,274.55,43,0,3.6,US,1680452132
200,quang ngai,15.1167,108.8,296.45,89,100,2.21,VN,1680452209
201,aksarka,66.5606,67.7975,267.69,84,100,4.08,RU,1680452209
202,norman wells,65.282,-126.8329,256.17,85,75,3.09,CA,1680452209
203,isangel,-19.55,169.2667,299.14,87,6,2.22,VU,1680452209
204,port moresby,-9.4431,147.1797,297.6,91,100,2.42,PG,1680452209
205,eureka,40.8021,-124.1637,281.49,93,95,0.89,US,1680451930
206,yamada,39.4667,141.95,277.99,82,81,1.82,JP,1680452210
207,boguchany,58.3814,97.4531,266.8,78,100,3.92,RU,1680452210
208,kodiak,57.79,-152.4072,271.88,55,0,5.66,US,1680452210
209,muravlenko,63.7898,74.523,273.98,98,100,8.58,RU,1680452210
210,ambon,-3.6954,128.1814,296.61,17,20,1.54,ID,1680452210
211,sao paulo de olivenca,-3.3783,-68.8725,296.01,99,100,0.75,BR,1680452210
212,kinkala,-4.3614,14.7644,299.06,83,93,1.14,CG,1680452210
213,akom,2.6678,12.7109,299.16,61,93,1.93,CM,1680452211
214,te anau,-45.4167,167.7167,277.86,91,13,0.48,NZ,1680452211
215,manokwari,-0.8667,134.0833,298.46,84,84,1.63,ID,1680452211
216,atar,20.5169,-13.0499,310.68,4,0,2.74,MR,1680452211
217,reims,49.1667,4.0833,280.56,87,100,6.69,FR,1680452166
218,inhambane,-23.865,35.3833,296.82,73,47,3.48,MZ,1680452211
219,kirensk,57.7853,108.1119,254.63,99,49,1.19,RU,1680452211
220,bambous virieux,-20.3428,57.7575,299.94,89,75,3.6,MU,1680452212
221,saint-philippe,-21.3585,55.7679,298.92,80,100,1.98,RE,1680452212
222,ust-nera,64.5667,143.2,256.31,95,95,3.47,RU,1680452212
223,pulandian,39.3953,121.9669,284.21,50,100,1.74,CN,1680452212
224,pangnirtung,66.1451,-65.7125,263.15,48,100,1.54,CA,1680452212
225,el alto,-4.2714,-81.2147,300.96,75,99,4.68,PE,1680452213
226,sovetskiy,61.3614,63.5842,273.43,96,68,2.36,RU,1680452213
227,luderitz,-26.6481,15.1594,292.43,74,82,6.89,NA,1680452213
228,awjilah,29.1081,21.2869,301.53,8,0,4.65,LY,1680452213
229,carnarvon,-24.8667,113.6333,297.36,73,92,6.2,AU,1680452213
230,trapani,37.8333,12.6667,285.2,88,40,1.03,IT,1680452213
231,khuzhir,53.1939,107.3397,262.69,76,64,3.83,RU,1680452213
232,kivsharivka,49.6213,37.7036,282.04,72,100,3.7,UA,1680452213
233,lewisporte,49.2499,-55.0482,278.99,100,100,1.85,CA,1680452213
234,sitka,57.0531,-135.33,274.09,86,0,0.0,US,1680452214
235,ribeira grande,38.5167,-28.7,289.14,63,40,11.83,PT,1680452214
236,dingle,10.9995,122.6711,297.29,83,54,2.64,PH,1680452214
237,waipawa,-41.4122,175.5153,285.79,88,80,5.59,NZ,1680452214
238,vredendal,-31.6683,18.5012,292.59,79,89,6.87,ZA,1680452215
239,moosomin,50.1333,-101.6677,270.61,97,100,2.32,CA,1680452215
240,fortuna,40.5982,-124.1573,281.34,91,97,3.13,US,1680452215
241,vikhorevka,56.1201,101.1636,263.92,95,71,1.44,RU,1680452215
242,seydi,39.4816,62.9137,288.71,48,82,5.61,TM,1680452215
243,coxim,-18.5067,-54.76,303.68,57,0,2.24,BR,1680452215
244,lorengau,-2.0226,147.2712,299.62,81,86,1.26,PG,1680452216
245,hanna,51.6334,-111.9018,270.29,91,100,5.81,CA,1680451944
246,lahuachaca,-17.3667,-67.6667,287.06,43,15,0.75,BO,1680452216
247,chopinzinho,-25.8558,-52.5233,300.17,39,0,1.16,BR,1680452216
248,mbarara,-0.608,30.65,294.42,70,68,1.85,UG,1680452216
249,koboko,3.4136,30.9599,295.1,69,60,1.57,UG,1680452216
250,togur,58.3631,82.8265,271.71,79,100,5.37,RU,1680452217
251,tarauaca,-8.1614,-70.7656,299.84,89,81,1.12,BR,1680452217
252,kapuskasing,49.4169,-82.4331,275.2,44,100,6.69,CA,1680452217
253,lasa,46.6166,10.7002,286.87,76,98,2.78,IT,1680452217
254,pisco,-13.7,-76.2167,299.18,73,20,3.09,PE,1680452217
255,srednekolymsk,67.45,153.6833,239.84,100,31,1.62,RU,1680452217
256,hami,42.8,93.45,278.54,18,25,2.38,CN,1680452218
257,petropavlovsk-kamchatskiy,53.0452,158.6483,270.48,80,0,2.0,RU,1680452218
258,aykhal,66.0,111.5,265.37,88,100,13.15,RU,1680452218
259,melfi,40.9965,15.6514,287.87,84,100,3.88,IT,1680452218
260,ulaangom,49.9811,92.0667,262.29,45,90,1.84,MN,1680452218
261,akyab,20.15,92.9,299.67,74,91,3.48,MM,1680452218
262,shitanjing,39.2342,106.3439,275.76,30,93,3.28,CN,1680452219
263,sulangan,11.1373,123.7228,300.71,77,69,6.84,PH,1680452219
264,pochutla,15.7432,-96.4661,305.83,42,32,2.47,MX,1680452219
265,laje,-10.1833,-40.9667,306.96,26,14,3.47,BR,1680452133
266,ballina,-28.8667,153.5667,290.25,86,33,1.22,AU,1680452219
267,adrar,20.5022,-10.0711,308.92,4,0,3.14,MR,1680452153
268,vestmannaeyjar,63.4427,-20.2734,279.7,70,75,7.72,IS,1680452219
269,valdemarpils,57.3707,22.5919,274.2,66,2,6.37,LV,1680452219
270,derzhavinsk,51.1,66.3167,279.12,48,0,7.92,KZ,1680452220
271,gat,31.61,34.7642,294.48,31,4,4.26,IL,1680452220
272,nova vicosa,-17.8919,-39.3719,300.85,70,60,4.9,BR,1680452220
273,fairbanks,64.8378,-147.7164,268.48,87,100,1.54,US,1680451974
274,gardner,42.5751,-71.9981,279.4,38,0,5.66,US,1680452220
275,severo-yeniseyskiy,60.3725,93.0408,265.23,92,100,5.89,RU,1680452220
276,acapulco,16.8634,-99.8901,303.05,54,0,3.09,MX,1680452189
277,kropotkin,45.4375,40.5756,284.81,55,42,3.45,RU,1680452221
278,houma,29.5958,-90.7195,299.15,58,0,6.17,US,1680452221
279,fort nelson,58.8053,-122.7002,266.45,75,97,0.89,CA,1680452123
280,sur,22.5667,59.5289,298.93,68,73,2.21,OM,1680452222
281,thompson,55.7435,-97.8558,256.24,66,75,6.69,CA,1680452222
282,faanui,-16.4833,-151.75,300.85,73,100,2.42,PF,1680452223
283,stupino,54.9008,38.0708,279.8,79,100,4.22,RU,1680452223
284,salinopolis,-0.6136,-47.3561,299.39,86,67,3.76,BR,1680452223
285,balabac,7.9868,117.0645,299.53,80,63,1.36,PH,1680452224
286,yilan,24.757,121.753,292.54,82,99,0.14,TW,1680452224
287,trinidad,-14.8333,-64.9,304.14,66,40,2.06,BO,1680452224
288,sarh,9.1429,18.3923,310.1,23,20,2.57,TD,1680452224
289,mawlaik,23.6333,94.4167,295.75,54,52,0.88,MM,1680452224
290,temir,49.1414,57.13,283.29,23,39,7.18,KZ,1680452224
291,pirawa,24.1551,76.0273,301.64,24,31,0.63,IN,1680452225
292,coahuayana,18.7333,-103.6833,303.54,31,67,1.44,MX,1680452225
293,takoradi,4.8845,-1.7554,302.64,66,99,4.41,GH,1680452141
294,kabompo,-13.5927,24.2008,293.35,93,99,1.85,ZM,1680452225
295,potosi,-19.5836,-65.7531,286.33,37,3,0.68,BO,1680452225
296,anadyr,64.75,177.4833,255.43,78,0,4.0,RU,1680452225
297,saint george,37.1041,-113.5841,286.72,39,0,0.89,US,1680452225
298,kaka,37.3482,59.6143,284.14,58,66,1.28,TM,1680452226
299,kununurra,-15.7667,128.7333,301.14,78,27,4.12,AU,1680452226
300,arkadelphia,34.1209,-93.0538,293.95,48,0,2.06,US,1680452226
301,beringovskiy,63.05,179.3167,257.15,94,46,1.58,RU,1680452226
302,mareeba,-17.0,145.4333,297.55,96,99,0.6,AU,1680452226
303,port antonio,18.18,-76.4612,304.26,63,10,4.27,JM,1680452227
304,tecoanapa,16.5167,-98.75,302.53,57,5,2.41,MX,1680452227
305,salalah,17.0151,54.0924,302.2,79,75,4.12,OM,1680452227
306,amboasary,-25.0333,46.3833,296.38,86,31,5.59,MG,1680452227
307,warmbad,-28.45,18.7333,299.84,22,99,7.22,NA,1680452228
308,big spring,32.2504,-101.4787,298.28,46,0,9.26,US,1680452228
309,gamba,-2.65,10.0,301.34,74,32,4.78,GA,1680452228
310,ponta do sol,32.6667,-17.1,297.43,67,0,2.25,PT,1680452228
311,pachino,36.7186,15.0907,286.91,77,100,7.58,IT,1680452228
312,kenai,60.5544,-151.2583,271.2,73,0,5.66,US,1680452139
313,meulaboh,4.1363,96.1285,297.96,86,100,2.49,ID,1680452228
314,cartagena,10.3997,-75.5144,303.94,66,0,3.6,CO,1680451980
315,burgersdorp,-30.9977,26.3286,292.34,58,71,8.03,ZA,1680452229
316,brownfield,33.1812,-102.2744,295.03,23,0,8.9,US,1680452229
317,moose factory,51.2585,-80.6094,264.15,61,75,5.66,CA,1680452229
318,pokhara,28.2333,83.9833,288.67,79,88,0.99,NP,1680452229
319,farah,32.5,62.5,293.03,39,0,3.41,AF,1680452001
320,salinas,36.6777,-121.6555,284.98,85,100,3.6,US,1680452230
321,tahoua,14.8888,5.2692,311.14,6,41,3.09,NE,1680452230
322,iberia,29.9502,-91.7507,298.19,36,0,5.66,US,1680452230
323,sakakah,29.9697,40.2064,294.91,20,0,2.84,SA,1680452231
324,hirara,24.8,125.2833,293.3,68,75,7.2,JP,1680452231
325,nara,34.6851,135.8049,286.2,30,100,2.58,JP,1680452231
326,visby,57.6409,18.296,277.62,55,20,9.26,SE,1680452231
327,zachepylivka,49.1939,35.2394,283.81,54,100,6.44,UA,1680452232
328,beni,0.5,29.4667,292.48,84,78,1.07,CD,1680452232
329,sao miguel do araguaia,-13.275,-50.1628,302.96,61,50,1.62,BR,1680452232
330,tuy hoa,13.0833,109.3,296.89,93,22,1.63,VN,1680452232
331,san ignacio,17.1561,-89.0714,304.16,43,40,4.04,BZ,1680452233
332,hobyo,5.3505,48.5268,302.21,73,27,5.56,SO,1680452233
333,flinders,-34.5833,150.8552,290.47,88,58,0.89,AU,1680452234
334,plastun,44.7561,136.2939,275.79,77,21,1.09,RU,1680452234
335,ondarroa,43.3167,-2.4167,287.89,69,62,6.3,ES,1680452234
336,aksu,41.1231,80.2644,286.21,16,0,1.79,CN,1680452234
337,college,64.8569,-147.8028,268.47,87,100,1.54,US,1680452014
338,acarau,-2.8856,-40.12,300.22,79,80,2.93,BR,1680451963
339,orlik,52.5178,99.825,250.37,85,49,1.21,RU,1680452235
340,igarka,67.4667,86.5833,273.45,86,100,7.48,RU,1680452235
341,vostok,46.4856,135.8833,273.75,85,78,2.08,RU,1680452235
342,staryy nadym,65.6118,72.6842,271.35,87,100,5.39,RU,1680452235
343,hambantota,6.1241,81.1185,299.28,80,53,0.52,LK,1680452235
344,praia,14.9215,-23.5087,308.45,17,0,9.77,CV,1680452235
345,xian,34.2583,108.9286,283.6,87,100,6.09,CN,1680452227
346,el paso,31.8001,-106.2005,292.44,16,20,6.17,US,1680452236
347,astana,51.1801,71.446,272.12,59,0,5.0,KZ,1680452236
348,mbinga,-10.9333,35.0167,291.07,95,91,1.35,TZ,1680452236
349,portland,45.5234,-122.6762,279.14,90,100,4.63,US,1680452187
350,acurenam,1.0322,10.6488,297.79,79,91,1.38,GQ,1680452236
351,banfora,10.6333,-4.7667,311.8,14,5,2.17,BF,1680452237
352,staritsa,56.5075,34.9354,276.23,98,100,2.93,RU,1680452237
353,margate,51.3813,1.3862,282.54,66,7,4.47,GB,1680452237
354,chuy,-33.6971,-53.4616,295.48,46,35,1.08,UY,1680452237
355,zaragoza,41.6561,-0.8773,289.27,44,75,11.83,ES,1680452059
356,walvis bay,-22.9575,14.5053,292.68,68,16,6.69,NA,1680452238
357,peace river,56.2501,-117.286,271.32,95,100,5.14,CA,1680452238
358,maceio,-9.6658,-35.7353,302.84,74,75,3.6,BR,1680451984
359,georgetown,5.4112,100.3354,300.12,89,20,1.54,MY,1680452239
360,mahibadhoo,3.7833,72.9667,301.52,72,16,3.55,MV,1680452239
361,sioux lookout,50.1001,-91.917,271.83,90,100,2.33,CA,1680451960
362,asau,46.4333,26.4,284.66,80,100,1.43,RO,1680452239
363,jasper,37.2001,-94.3502,293.18,22,0,8.23,US,1680452239
364,bereda,43.2686,-7.5406,290.45,55,100,2.64,ES,1680452239
365,lagoa,39.05,-27.9833,286.82,56,31,11.85,PT,1680452240
366,segezha,63.7415,34.3222,269.1,87,39,5.79,RU,1680452240
367,grindavik,63.8424,-22.4338,280.12,65,75,5.14,IS,1680452240
368,codajas,-3.8367,-62.0569,295.38,97,100,0.55,BR,1680452240
369,katsuura,35.1333,140.3,285.4,66,100,8.96,JP,1680452241
370,bang sao thong,13.595,100.8304,303.74,86,20,6.17,TH,1680452241
371,ilebo,-4.3167,20.5833,300.34,75,22,0.61,CD,1680452241
372,wuda,39.4994,106.7117,277.74,29,94,4.18,CN,1680452241
373,vega de alatorre,20.0333,-96.6333,300.64,64,2,2.21,MX,1680452242
374,placido de castro,-10.3353,-67.1856,303.23,59,100,1.47,BR,1680452242
375,kameshkovo,56.3481,41.0047,280.71,83,100,4.08,RU,1680452242
376,maniitsoq,65.4167,-52.9,267.34,59,73,1.5,GL,1680452242
377,namibe,-15.1961,12.1522,299.56,73,80,7.88,AO,1680452242
378,kolpashevo,58.3131,82.9089,271.59,79,100,5.36,RU,1680452243
379,kijang,35.2442,129.2139,286.0,69,0,8.72,KR,1680452243
380,touros,-5.1989,-35.4608,301.9,70,86,3.99,BR,1680452243
381,iquique,-20.2208,-70.1431,299.17,71,14,2.62,CL,1680452243
382,svetogorsk,61.1121,28.8632,273.92,47,88,4.89,RU,1680451965
383,severo-kurilsk,50.6789,156.125,272.64,87,76,6.05,RU,1680452244
384,luanda,-8.8368,13.2343,304.15,62,20,6.17,AO,1680452212
385,ambulu,-8.345,113.6058,297.55,89,100,1.14,ID,1680452244
386,denpasar,-8.65,115.2167,298.96,100,75,2.06,ID,1680451967
387,hokitika,-42.7167,170.9667,285.84,73,94,2.79,NZ,1680452244
388,ahipara,-35.1667,173.1667,289.5,91,33,4.32,NZ,1680452244
389,nyborg,55.3127,10.7896,278.34,59,1,6.37,DK,1680452244
390,levelland,33.5873,-102.378,293.81,29,0,7.38,US,1680452245
391,flagstaff,35.1981,-111.6513,282.37,31,0,4.63,US,1680452146
392,monkey bay,-14.0728,34.9201,296.85,79,92,6.92,MW,1680452245
393,korablino,53.9164,40.0133,281.11,72,88,2.86,RU,1680452250
394,athabasca,54.7169,-113.2854,272.85,91,100,1.65,CA,1680452250
395,shimoda,34.6667,138.95,284.32,74,100,10.39,JP,1680452250
396,mangrol,21.1167,70.1167,297.75,74,0,4.28,IN,1680452250
397,male,4.1748,73.5089,302.12,79,20,3.09,MV,1680452250
398,victoria,22.2855,114.1577,295.18,92,100,0.45,HK,1680452250
399,dabhol,17.6,73.1667,296.87,72,13,2.64,IN,1680452251
400,thinadhoo,0.5333,72.9333,301.32,70,99,3.87,MV,1680452251
401,igbon,11.2142,123.1655,299.3,76,58,5.29,PH,1680452251
402,sinnamary,5.3833,-52.95,300.94,68,73,5.63,GF,1680452251
403,nizwa,22.9333,57.5333,299.85,30,78,2.39,OM,1680452251
404,jalu,29.0331,21.5482,301.46,8,0,4.41,LY,1680452251
405,traverse city,44.7631,-85.6206,278.9,41,75,4.63,US,1680452112
406,gushikawa,26.3544,127.8686,292.72,72,0,2.57,JP,1680452251
407,hovd,48.0056,91.6419,260.11,45,58,1.32,MN,1680452252
408,caravelas,-17.7125,-39.2481,302.38,59,59,3.5,BR,1680452252
409,lagos,6.5833,3.75,305.33,58,90,4.36,NG,1680452167
410,kutum,14.2,24.6667,302.47,10,68,3.65,SD,1680452252
411,lodwar,3.1191,35.5973,306.22,35,71,7.0,KE,1680452252
412,ozernovskiy,51.5,156.5167,271.9,89,53,3.7,RU,1680452252
413,khani,41.9563,42.9566,285.91,73,30,2.19,GE,1680452253
414,ayagoz,47.9714,80.4392,267.47,60,3,6.42,KZ,1680452253
415,vicuna,-30.0319,-70.7081,303.58,35,4,2.89,CL,1680452219
416,talnakh,69.4865,88.3972,268.82,97,100,4.6,RU,1680452253
417,novaya igirma,57.1334,103.9112,257.55,96,59,1.6,RU,1680452253
418,fort-shevchenko,44.5086,50.263,281.46,79,100,2.9,KZ,1680452254
419,san policarpo,12.1791,125.5072,299.63,74,100,3.28,PH,1680452254
420,coquimbo,-29.9533,-71.3436,292.0,77,20,5.66,CL,1680452254
421,ribas do rio pardo,-20.4431,-53.7592,303.03,53,0,1.92,BR,1680452254
422,kungurtug,50.5994,97.5228,255.89,96,92,0.73,RU,1680452254
423,khorixas,-20.3667,14.9667,303.44,14,65,7.66,NA,1680452254
424,yaan,7.3833,8.5667,309.77,27,87,0.92,NG,1680452254
425,zhigansk,66.7697,123.3711,265.75,94,100,10.1,RU,1680452254
426,nouadhibou,20.931,-17.0347,301.14,44,0,5.66,MR,1680452255
427,poya,-21.35,165.15,297.22,89,69,0.98,NC,1680452255
428,lahat,-3.8,103.5333,295.34,95,99,1.27,ID,1680452255
429,yatou,37.15,122.3833,282.69,55,55,0.28,CN,1680452255
430,great yarmouth,52.6083,1.7305,283.43,70,6,6.83,GB,1680452255
431,debre tabor,11.85,38.0167,292.43,25,95,5.48,ET,1680452255
432,prieska,-29.6641,22.7474,302.38,13,90,10.07,ZA,1680452256
433,ust-barguzin,53.45,108.9833,261.67,85,100,0.78,RU,1680452256
434,nelson bay,-32.7167,152.15,293.71,98,47,2.24,AU,1680452256
435,mount isa,-20.7333,139.5,295.02,37,31,4.12,AU,1680452256
436,shubarkuduk,49.1447,56.4872,283.83,23,66,7.2,KZ,1680452256
437,eyrarbakki,63.863,-21.1481,280.18,72,100,5.57,IS,1680452256
438,vila franca do campo,37.7167,-25.4333,289.38,68,15,7.94,PT,1680452257
439,halifax,44.6453,-63.5724,279.51,74,100,14.4,CA,1680451523
440,les cayes,18.2,-73.75,302.05,59,0,5.12,HT,1680452257
441,zaozerne,45.1582,33.2787,282.79,91,100,8.6,UA,1680452257
442,sept-iles,50.2001,-66.3821,272.44,74,75,9.77,CA,1680452257
443,lewiston,44.1003,-70.2148,278.07,31,0,11.32,US,1680452129
444,sarande,39.8756,20.0053,291.0,76,25,2.24,AL,1680452258
445,damietta,31.4165,31.8133,291.2,63,8,5.02,EG,1680452258
446,cascais,38.6979,-9.4215,297.07,56,0,6.17,PT,1680452258
447,mehamn,71.0357,27.8492,270.12,93,75,4.12,NO,1680452258
448,xuddur,4.1213,43.8894,298.0,65,93,3.28,SO,1680452258
449,toamasina,-18.1667,49.3833,298.6,85,100,0.96,MG,1680452262
450,dhidhdhoo,6.8833,73.1,301.16,70,31,4.67,MV,1680452262
451,gualaquiza,-3.4,-78.55,292.53,91,99,0.62,EC,1680452262
452,riyadh,24.6877,46.7219,293.23,15,14,4.72,SA,1680452097
453,misratah,32.3754,15.0925,293.78,60,22,5.43,LY,1680452262
454,gornopravdinsk,60.05,69.9,276.89,94,100,3.35,RU,1680452263
455,varkaus,62.3153,27.873,273.32,84,100,4.45,FI,1680452175
456,amahai,-3.3333,128.9167,297.91,90,100,2.6,ID,1680452264
457,puerto concordia,2.6221,-72.7572,298.2,86,100,0.81,CO,1680452264
458,moussoro,13.6408,16.4901,311.55,13,26,1.34,TD,1680452264
459,sao filipe,14.8961,-24.4956,299.95,51,0,3.75,CV,1680452265
460,jiayuguan,39.8167,98.3,276.43,53,31,2.65,CN,1680452265
461,nanzhang,31.7765,111.8386,290.7,95,100,0.39,CN,1680452265
462,tabuk,17.4189,121.4443,296.14,88,39,1.6,PH,1680452266
463,roma,43.2128,-75.4557,274.47,39,0,2.57,US,1680452266
464,sao goncalo do amarante,-3.6072,-38.9683,301.0,79,100,0.99,BR,1680452266
465,lavrentiya,65.5833,-171.0,251.09,95,13,3.37,RU,1680452266
466,itarema,-2.9248,-39.9167,299.23,86,75,3.76,BR,1680452135
467,akdepe,42.0551,59.3788,285.2,35,74,4.05,TM,1680452266
468,porto novo,6.4965,2.6036,304.24,60,98,5.29,BJ,1680452266
469,ambilobe,-13.2,49.05,297.5,92,95,1.09,MG,1680452266
470,merke,42.8728,73.1786,281.15,41,77,3.11,KZ,1680452267
471,port hawkesbury,45.6169,-61.3485,278.1,75,0,10.73,CA,1680452267
472,caluquembe,-13.7833,14.6833,293.74,80,83,1.27,AO,1680452212
473,kopavogur,64.1123,-21.913,279.99,53,75,5.66,IS,1680452267
474,clyde river,70.4692,-68.5914,249.28,77,20,2.57,CA,1680452267
475,worland,44.0169,-107.9554,279.64,73,0,3.6,US,1680452267
476,komsomolskiy,40.4272,71.7189,290.55,55,75,7.2,UZ,1680452268
477,anloga,5.7947,0.8973,302.3,72,94,5.96,GH,1680452268
478,sistranda,63.7256,8.834,279.13,68,84,4.23,NO,1680452268
479,mahon,39.8885,4.2658,288.46,47,20,7.2,ES,1680452119
480,baicheng,45.6167,122.8167,289.77,19,100,9.18,CN,1680452268
481,pacific grove,36.6177,-121.9166,284.47,88,100,6.71,US,1680452268
482,baykit,61.67,96.37,268.03,90,100,4.89,RU,1680452268
483,jiexiu,37.0244,111.9125,287.23,79,100,1.12,CN,1680452268
484,chakulia,22.4833,86.7167,301.12,51,62,4.54,IN,1680452269
485,wana,32.2989,69.5725,286.73,80,83,1.06,PK,1680452269
486,teguise,29.0605,-13.564,296.27,50,20,11.83,ES,1680452269
487,avera,33.194,-82.5271,294.21,44,51,2.03,US,1680452269
488,altay,47.8667,88.1167,263.81,41,29,5.63,CN,1680452269
489,macusani,-14.0833,-70.4333,283.02,53,74,2.65,PE,1680452269
490,hudson bay,52.85,-102.3842,265.66,89,100,6.88,CA,1680452270
491,madinat sittah uktubar,29.8167,31.05,298.93,18,0,3.06,EG,1680452270
492,pozo colorado,-23.4923,-58.7972,307.19,40,0,2.23,PY,1680452270
493,makokou,0.5738,12.8642,301.86,60,70,1.16,GA,1680452270
494,kabo,7.6994,18.629,310.44,20,46,2.21,CF,1680452270
495,jha jha,24.7667,86.3667,300.35,30,26,2.67,IN,1680452270
496,arani,12.6667,79.2833,300.4,72,35,2.68,IN,1680452270
497,mataram,-8.5833,116.1167,298.6,84,100,1.79,ID,1680452272
498,balad,34.0164,44.1453,291.9,33,4,3.15,IQ,1680452272
499,rio gallegos,-51.6226,-69.2181,285.37,52,1,8.05,AR,1680452201
500,vallenar,-28.5708,-70.7581,300.24,45,0,2.64,CL,1680452273
501,tebingtinggi,3.3285,99.1625,297.47,92,100,1.66,ID,1680452273
502,bilma,18.6853,12.9164,304.42,4,100,2.75,NE,1680452273
503,oktyabrskiy,54.4815,53.471,278.6,77,94,2.61,RU,1680452273
504,gondar,12.6,37.4667,294.34,18,67,4.87,ET,1680452274
505,zabaykalsk,49.6333,117.3167,267.64,84,99,10.91,RU,1680452274
506,khanpur,28.6453,70.6567,302.18,31,0,1.38,PK,1680452274
507,keti bandar,24.1447,67.4497,298.54,74,6,7.04,PK,1680452274
508,quatre cocos,-20.2078,57.7625,299.87,81,93,2.8,MU,1680452274
509,panzos,15.4,-89.6667,302.81,56,46,1.91,GT,1680452275
510,fare,-16.7,-151.0167,300.9,71,89,2.61,PF,1680452275
511,karratha,-20.7377,116.8463,301.72,71,88,3.57,AU,1680452275
512,beloha,-25.1667,45.05,295.36,84,71,5.21,MG,1680452275
513,garowe,8.4054,48.4845,305.29,41,26,4.55,SO,1680452275
514,tual,-5.6667,132.75,300.44,79,98,2.54,ID,1680452275
515,inuvik,68.3499,-133.7218,258.63,72,75,3.09,CA,1680452275
516,kidal,18.4411,1.4078,307.6,5,95,2.75,ML,1680452275
517,kisangani,0.5167,25.2,300.02,69,80,0.91,CD,1680452276
518,el dorado,38.7666,-120.5177,280.68,92,100,1.84,US,1680452276
519,tongliao,43.6125,122.2653,288.49,17,100,8.04,CN,1680452276
520,dewas,22.9667,76.0667,298.25,24,3,3.26,IN,1680452152
521,semnan,35.5729,53.3971,285.11,29,49,4.7,IR,1680452276
522,labrea,-7.2586,-64.7981,297.5,90,100,1.67,BR,1680452276
523,havoysund,70.9963,24.6622,273.28,63,99,3.32,NO,1680452277
524,ahuimanu,21.4447,-157.8378,295.47,91,100,3.29,US,1680452277
525,lata,40.1629,-8.3327,294.22,28,48,2.82,PT,1680452277
526,makubetsu,45.3714,141.8211,272.88,70,1,3.12,JP,1680452277
527,lakatoro,-16.0999,167.4164,300.01,84,91,2.71,VU,1680452277
528,atasu,48.6814,71.6433,274.18,54,0,7.6,KZ,1680452277
529,galle,6.0367,80.217,298.85,83,59,0.32,LK,1680452277
530,atbasar,51.8,68.3333,272.16,74,0,4.37,KZ,1680452277
531,concepcion,-36.827,-73.0498,288.04,82,0,4.63,CL,1680452072
532,san andres,12.5847,-81.7006,303.16,66,40,7.72,CO,1680452278
533,the valley,18.217,-63.0578,302.07,74,40,8.75,AI,1680452278
534,tautira,-17.7333,-149.15,301.37,68,90,3.7,PF,1680452278
535,glace bay,46.1969,-59.957,277.64,68,75,6.17,CA,1680452278
536,necochea,-38.5473,-58.7368,296.21,43,100,3.25,AR,1680452278
537,maldonado,-34.6667,-54.9167,296.81,39,76,2.77,UY,1680452279
538,shelburne,44.0787,-80.2041,274.04,44,8,1.14,CA,1680452279
539,laives,46.4228,11.3348,292.14,22,40,5.14,IT,1680452279
540,haines junction,60.7522,-137.5108,258.12,72,60,0.51,CA,1680452279
541,black river,18.0264,-77.8487,302.52,52,40,3.16,JM,1680452279
542,carutapera,-1.195,-46.02,298.82,91,99,1.23,BR,1680452279
543,linjiang,41.8069,126.9078,284.48,44,40,0.54,CN,1680452279
544,chapais,49.7834,-74.8492,259.03,73,79,4.05,CA,1680452279
545,kankipadu,16.45,80.7833,300.21,83,40,2.06,IN,1680452280
546,guerrero negro,27.9769,-114.0611,288.77,69,0,6.02,MX,1680452273
547,aswan,24.0934,32.907,299.93,11,33,3.63,EG,1680452280
548,rozkishne,48.5074,39.3004,283.06,67,91,3.12,UA,1680452280
549,conceicao da barra,-18.5933,-39.7322,301.58,68,59,4.3,BR,1680452280
550,alice springs,-23.7,133.8833,294.38,56,100,3.6,AU,1680452280
551,ailigandi,9.2333,-78.0167,300.4,80,99,5.84,PA,1680452280
552,mizque,-17.941,-65.3402,296.24,52,17,2.08,BO,1680452281
553,yar-sale,66.8333,70.8333,267.58,87,100,3.98,RU,1680452282
554,yenotayevka,47.2456,47.0281,286.27,40,50,3.7,RU,1680452282
555,khandbari,27.3747,87.2039,288.66,78,68,1.19,NP,1680452282
556,gizycko,54.0381,21.7644,276.99,62,99,8.0,PL,1680452282
557,hoima,1.4356,31.3436,294.03,87,66,0.62,UG,1680452283
558,tazovskiy,67.4667,78.7,267.45,89,100,6.62,RU,1680452283
559,guangyuan,32.442,105.823,285.12,83,98,3.57,CN,1680452283
560,sobolevo,54.4299,31.8996,275.97,95,100,4.44,RU,1680452283
561,durango,24.8333,-104.8333,294.61,19,76,1.38,MX,1680452211
562,nanortalik,60.1432,-45.2371,273.73,67,100,2.95,GL,1680452283
563,were ilu,10.6,39.4333,286.75,80,100,2.92,ET,1680452283
564,csemo,47.118,19.6909,286.85,68,87,4.21,HU,1680452284
565,balykshi,47.0667,51.8667,283.15,71,75,2.0,KZ,1680452284
566,victor harbor,-35.5667,138.6167,286.25,83,1,3.42,AU,1680452285
567,ziway,7.9333,38.7167,293.68,66,95,4.75,ET,1680451998
568,erenhot,43.6475,111.9767,276.14,44,100,5.2,CN,1680452285
569,grand-santi,4.25,-54.3833,303.53,53,75,2.18,GF,1680452286
570,sedalia,38.7045,-93.2283,291.1,27,0,7.2,US,1680452163
571,kieta,-6.2167,155.6333,299.84,83,72,1.28,PG,1680452287
572,vardo,70.3705,31.1107,271.14,80,100,5.66,NO,1680452287
573,tevaitoa,-16.7833,-151.5,300.79,74,100,2.55,PF,1680452287
574,inyonga,-6.7167,32.0667,293.49,87,54,1.56,TZ,1680452288
575,saint-pierre,-21.3393,55.4781,298.97,78,100,1.54,RE,1680452288
576,anshun,26.25,105.9333,293.03,42,0,7.08,CN,1680452289
577,bluefield,37.2698,-81.2223,281.68,68,100,2.57,US,1680452290
578,nueve de julio,-35.4444,-60.8831,298.1,30,100,4.77,AR,1680452290
579,teya,60.3778,92.6267,267.23,90,100,5.47,RU,1680452291
